nombre,latitud,longitud
Gran Muralla China,40.4319,116.5704
Petra,30.3285,35.4444
Coliseo,41.8902,12.4922
Chichén Itzá,20.6843,-88.5678
Machu Picchu,-13.1631,-72.5450
Taj Mahal,27.1751,78.0421
Cristo Redentor,-22.9519,-43.2105
